[{
        "name": "世新大學管理學院",
        "address": "116台北市文山區木柵路一段111號",
        "coords": {
            "latitude": 24.988076,
            "longitude": 121.547923
        },
        "image_url": "http://wp.shu.edu.tw/wp-ctt/uploads/sites/12/2016/08/65caf2c3805ab9fd73c7582918f0874b.jpg"
    },
    {
        "name": "中正紀念堂",
        "address": "100台北市中正區中山南路21號",
        "coords": {
            "latitude": 25.034768,
            "longitude": 121.521797
        },
        "image_url": "https://lh5.googleusercontent.com/proxy/cS4gE4mWPzhgXfx_rB_oC6I09L_HDxfacsHN3EP4ap28Au7ZPXV5wEK99aDFJMlEjtgmR-NpaKcQ_86yURVnYELEEIFgy2gucoUqTuIfO1Sy0vSQl8cE8a5GWEgfIZrl1bTJSWpGniwf7bb4qqij19EuX7EGuaA=w408-h269-k-no"
    },
    {
        "name": "國立國父紀念館",
        "address": "110台北市信義區仁愛路四段505號",
        "coords": {
            "latitude": 25.040347,
            "longitude": 121.560254
        },
        "image_url": "https://lh4.googleusercontent.com/proxy/Ta9du5rTBXrLDogd3R1Tl7kI45Jx5TNewY7r5GFF3fr-AZ4hDGMlLrMwt8q6BuAxDTBKyNDTDhepxFxs49cQTBfz5qe7AuBD2FfZ7l__g4n0Vur2yK1qxpNKjlLb_1z4evA_zye9Hk3IYMcAbQWMWrXUPXCxc1c=w408-h272-k-no"
    },
    {
        "name": "臺北市立動物園",
        "address": "11656台北市文山區新光路二段30號",
        "coords": {
            "latitude": 24.998666,
            "longitude": 121.581094
        },
        "image_url": "https://cc.tvbs.com.tw/img/program/upload/2019/03/29/20190329210202-fd72b545.jpg"
    },
    {
        "name": "三角冰冰品專賣店",
        "address": "116台北市文山區羅斯福路五段170巷10號",
        "coords": {
            "latitude": 25.004810,
            "longitude": 121.538040
        },
        "image_url": "https://lh6.googleusercontent.com/proxy/Z0x_CKRJUWanxaOeIFQ2KUEjQbzqh3FTUXXwhtG_1HHC7msB_2SCnESvuyMPDax3T9qAV09I5r_VOTIJ2ES4Y4G6EU3GdIxDfzW6G2X47J3BJ09RLeeIIwp1VQIL43AloRnpdmmTF9vq7IggojtJZnEhEgqegg=w408-h272-k-no"
    },

    {
        "name": "THE BLACK ROSE CAFE",
        "address": "116台北市文山區羅斯福路五段170巷4號",
        "coords": {
            "latitude": 25.004710,
            "longitude": 121.538378
        },
        "image_url": "https://lh6.googleusercontent.com/proxy/Z0x_CKRJUWanxaOeIFQ2KUEjQbzqh3FTUXXwhtG_1HHC7msB_2SCnESvuyMPDax3T9qAV09I5r_VOTIJ2ES4Y4G6EU3GdIxDfzW6G2X47J3BJ09RLeeIIwp1VQIL43AloRnpdmmTF9vq7IggojtJZnEhEgqegg=w408-h272-k-no"
    }










]