[{
        "name": "Independence Palace",
        "address": "135 Nam Kỳ Khởi Nghĩa, Phường Bến Thành, Quận 1, Hồ Chí Minh 700000",
        "coords": {
            "latitude": 25.034178,
            "longitude": 121.564494
        },
        "image_url": "https://dimg04.c-ctrip.com/images/350v0y000000miab3FDE5_C_1136_640_Q60.jpg?proc=source/trip;namelogo/d_40"
    },
    {
        "name": "世新大學管理學院",
        "address": "116台北市文山區木柵路一段111號",
        "coords": {
            "latitude": 24.988076,
            "longitude": 121.547923
        },
        "image_url": "http://wp.shu.edu.tw/wp-ctt/uploads/sites/12/2016/08/65caf2c3805ab9fd73c7582918f0874b.jpg"
    },
    {
        "name": "台北車站",
        "address": "100台北市中正區北平西路3號",
        "coords": {
            "latitude": 25.047955,
            "longitude": 121.516931
        },
        "image_url": "https://lh5.googleusercontent.com/p/AF1QipMEqjYMyJVF6ERge7Uiz-luEhTuHYcJxe_VBbU3=w408-h306-k-no"
    },
    {
        "name": "台北101",
        "address": "110台北市信義區信義路五段7號89樓/110樓",
        "coords": {
            "latitude": 25.034099,
            "longitude": 121.564502
        },
        "image_url": "https://res.klook.com/images/fl_lossy.progressive,q_65/c_fill,w_1200,h_630,f_auto/w_80,x_15,y_15,g_south_west,l_klook_water/activities/vxcjhqicqpoah4moqiok/%E5%8F%B0%E5%8C%97101%E8%A7%80%E6%99%AF%E5%8F%B0%E9%96%80%E7%A5%A8.jpg"
    },
    {
        "name": "大安森林公園",
        "address": "106台北市大安區新生南路二段1號",
        "coords": {
            "latitude": 25.032983,
            "longitude": 121.535795
        },
        "image_url": "https://lh3.googleusercontent.com/proxy/twR1Jdv9rzUeC2f7Lqd3--H7zlSV56jcq7xCAL8exq0LfDxo-zHHLCQnBQkSsFg37AKNIBT6yPdQYaT_Mlnsi5PEdxb3Qm-7k0HFUYsBCZ3lWhvxIegcT4jaTp2YI49ZP2eaKBzg1g1CpgF4xuXyhypiKZuV6BA=w408-h272-k-no"
    },
    {
        "name": "中正紀念堂",
        "address": "100台北市中正區中山南路21號",
        "coords": {
            "latitude": 25.034768,
            "longitude": 121.521797
        },
        "image_url": "https://lh5.googleusercontent.com/proxy/cS4gE4mWPzhgXfx_rB_oC6I09L_HDxfacsHN3EP4ap28Au7ZPXV5wEK99aDFJMlEjtgmR-NpaKcQ_86yURVnYELEEIFgy2gucoUqTuIfO1Sy0vSQl8cE8a5GWEgfIZrl1bTJSWpGniwf7bb4qqij19EuX7EGuaA=w408-h269-k-no"
    },
    {
        "name": "國立國父紀念館",
        "address": "110台北市信義區仁愛路四段505號",
        "coords": {
            "latitude": 25.040347,
            "longitude": 121.560254
        },
        "image_url": "https://lh4.googleusercontent.com/proxy/Ta9du5rTBXrLDogd3R1Tl7kI45Jx5TNewY7r5GFF3fr-AZ4hDGMlLrMwt8q6BuAxDTBKyNDTDhepxFxs49cQTBfz5qe7AuBD2FfZ7l__g4n0Vur2yK1qxpNKjlLb_1z4evA_zye9Hk3IYMcAbQWMWrXUPXCxc1c=w408-h272-k-no"
    },
    {
        "name": "臺北市立動物園",
        "address": "11656台北市文山區新光路二段30號",
        "coords": {
            "latitude": 24.998666,
            "longitude": 121.581094
        },
        "image_url": "https://cc.tvbs.com.tw/img/program/upload/2019/03/29/20190329210202-fd72b545.jpg"
    },
    {
        "name": "中華民國總統府",
        "address": "100台北市中正區重慶南路一段122號",
        "coords": {
            "latitude": 25.040090,
            "longitude": 121.511955
        },
        "image_url": "https://lh5.googleusercontent.com/p/AF1QipOu9316cgtDh55zDF_RP9dagU06v2L2WFgBjkRC=w408-h306-k-no"
    },
    {
        "name": "松山文創園區",
        "address": "110台北市信義區光復南路133號",
        "coords": {
            "latitude": 25.043786,
            "longitude": 121.560636
        },
        "image_url": "https://www.taiwanviptravel.com/wp-content/uploads/2017/07/AS002-8.jpg"
    },
    {
        "name": "國立故宮博物院",
        "address": "111台北市士林區至善路二段221號",
        "coords": {
            "latitude": 25.102421,
            "longitude": 121.548500
        },
        "image_url": "https://lh6.googleusercontent.com/proxy/Z0x_CKRJUWanxaOeIFQ2KUEjQbzqh3FTUXXwhtG_1HHC7msB_2SCnESvuyMPDax3T9qAV09I5r_VOTIJ2ES4Y4G6EU3GdIxDfzW6G2X47J3BJ09RLeeIIwp1VQIL43AloRnpdmmTF9vq7IggojtJZnEhEgqegg=w408-h272-k-no"
    },

    {
        "name": "三角冰冰品專賣店",
        "address": "116台北市文山區羅斯福路五段170巷10號",
        "coords": {
            "latitude": 25.004810,
            "longitude": 121.538040
        },
        "image_url": "https://lh6.googleusercontent.com/proxy/Z0x_CKRJUWanxaOeIFQ2KUEjQbzqh3FTUXXwhtG_1HHC7msB_2SCnESvuyMPDax3T9qAV09I5r_VOTIJ2ES4Y4G6EU3GdIxDfzW6G2X47J3BJ09RLeeIIwp1VQIL43AloRnpdmmTF9vq7IggojtJZnEhEgqegg=w408-h272-k-no"
    },

    {
        "name": "THE BLACK ROSE CAFE",
        "address": "116台北市文山區羅斯福路五段170巷4號",
        "coords": {
            "latitude": 25.004710,
            "longitude": 121.538378
        },
        "image_url": "https://lh6.googleusercontent.com/proxy/Z0x_CKRJUWanxaOeIFQ2KUEjQbzqh3FTUXXwhtG_1HHC7msB_2SCnESvuyMPDax3T9qAV09I5r_VOTIJ2ES4Y4G6EU3GdIxDfzW6G2X47J3BJ09RLeeIIwp1VQIL43AloRnpdmmTF9vq7IggojtJZnEhEgqegg=w408-h272-k-no"
    }










]